{
  "name": "上海地铁1号线厕所分布图",
  "description": "最后更新 2024.09",
  "origin": "上海地铁公众号",
  "filter": {
    "inclusive": {
      "路线": [
        "1号线"
      ],
      "卫生间分布": [
        "费区内有卫生间",
        "费区外有卫生间",
        "车站外有卫生间"
      ],
      "无障碍卫生间分布": [
        "费区内有无障碍卫生间",
        "费区外有无障碍卫生间",
        "无无障碍卫生间"
      ]
    },
    "exclusive": {}
  },
  "data": [
    {
      "name": "富锦路",
      "address": "上海市富锦路地铁站",
      "intro": "站厅近2号口",
      "tags": [
        "1号线",
        "费区内有无障碍卫生间",
        "费区内有卫生间"
      ],
      "center": {
        "lat": 31.39226,
        "lng": 121.424661
      }
    },
    {
      "name": "友谊西路",
      "address": "上海市友谊西路地铁站",
      "intro": "站厅近1号口",
      "tags": [
        "1号线",
        "费区内有无障碍卫生间",
        "费区内有卫生间"
      ],
      "center": {
        "lat": 31.381296,
        "lng": 121.427953
      }
    },
    {
      "name": "宝安公路",
      "address": "上海市宝安公路地铁站",
      "intro": "站厅近3号口",
      "tags": [
        "1号线",
        "费区外有无障碍卫生间",
        "费区外有卫生间"
      ],
      "center": {
        "lat": 31.369555,
        "lng": 121.430914
      }
    },
    {
      "name": "共富新村",
      "address": "上海市共富新村地铁站",
      "intro": "2、4号口外公交站点厕所",
      "tags": [
        "1号线",
        "车站外有卫生间",
        "无无障碍卫生间"
      ],
      "center": {
        "lat": 31.355082,
        "lng": 121.434063
      }
    },
    {
      "name": "呼兰路",
      "address": "上海市呼兰路地铁站",
      "intro": "2号口外公共厕所",
      "tags": [
        "1号线",
        "车站外有卫生间",
        "无无障碍卫生间"
      ],
      "center": {
        "lat": 31.339703,
        "lng": 121.437711
      }
    },
    {
      "name": "通河新村",
      "address": "上海市通河新村地铁站",
      "intro": "2号口外公共厕所",
      "tags": [
        "1号线",
        "车站外有卫生间",
        "无无障碍卫生间"
      ],
      "center": {
        "lat": 31.33113,
        "lng": 121.441546
      }
    },
    {
      "name": "共康路",
      "address": "上海市共康路地铁站",
      "intro": "4号口外公共厕所",
      "tags": [
        "1号线",
        "车站外有卫生间",
        "无无障碍卫生间"
      ],
      "center": {
        "lat": 31.317609,
        "lng": 121.447565
      }
    },
    {
      "name": "彭浦新村",
      "address": "上海市彭浦新村地铁站",
      "intro": "4号口外自动扶梯旁公共厕所",
      "tags": [
        "1号线",
        "车站外有卫生间",
        "无无障碍卫生间"
      ],
      "center": {
        "lat": 31.306604,
        "lng": 121.448642
      }
    },
    {
      "name": "汶水路",
      "address": "上海市汶水路地铁站",
      "intro": "2号口外楼梯旁公共厕所",
      "tags": [
        "1号线",
        "车站外有卫生间",
        "无无障碍卫生间"
      ],
      "center": {
        "lat": 31.292556,
        "lng": 121.450251
      }
    },
    {
      "name": "上海马戏城",
      "address": "上海市上海马戏城地铁站",
      "intro": "2号口外公共厕所",
      "tags": [
        "1号线",
        "车站外有卫生间",
        "无无障碍卫生间"
      ],
      "center": {
        "lat": 31.279895,
        "lng": 121.452023
      }
    },
    {
      "name": "延长路",
      "address": "上海市延长路地铁站",
      "intro": "近3号口",
      "tags": [
        "1号线",
        "车站外有卫生间",
        "无无障碍卫生间"
      ],
      "center": {
        "lat": 31.271675,
        "lng": 121.455329
      }
    },
    {
      "name": "中山北路",
      "address": "上海市中山北路地铁站",
      "intro": "近2号口",
      "tags": [
        "1号线",
        "车站外有卫生间",
        "无无障碍卫生间"
      ],
      "center": {
        "lat": 31.258891,
        "lng": 121.459204
      }
    },
    {
      "name": "上海火车站",
      "address": "上海市上海火车站地铁站",
      "intro": "往B方向站台车头",
      "tags": [
        "1号线",
        "费区内有无障碍卫生间",
        "费区内有卫生间"
      ],
      "center": {
        "lat": 31.249632,
        "lng": 121.457939
      }
    },
    {
      "name": "汉中路",
      "address": "上海市汉中路地铁站",
      "intro": "站厅近10号口",
      "tags": [
        "1号线",
        "费区内有无障碍卫生间",
        "费区内有卫生间"
      ],
      "center": {
        "lat": 31.241723,
        "lng": 121.45862
      }
    },
    {
      "name": "新闸路",
      "address": "上海市新闸路地铁站",
      "intro": "往A方向站台车头（施工封闭）",
      "tags": [
        "1号线",
        "费区内有无障碍卫生间",
        "费区内有卫生间"
      ],
      "center": {
        "lat": 31.238373,
        "lng": 121.468151
      }
    },
    {
      "name": "人民广场",
      "address": "上海市人民广场地铁站",
      "intro": "往B方向站台车头（施工封闭）",
      "tags": [
        "1号线",
        "费区内有无障碍卫生间",
        "费区内有卫生间"
      ],
      "center": {
        "lat": 31.232687,
        "lng": 121.475108
      }
    },
    {
      "name": "一大会址·黄陂南路",
      "address": "上海市一大会址·黄陂南路地铁站",
      "intro": "往A方向站台车头",
      "tags": [
        "1号线",
        "费区内有无障碍卫生间",
        "费区内有卫生间"
      ],
      "center": {
        "lat": 31.223653,
        "lng": 121.472339
      }
    },
    {
      "name": "陕西南路",
      "address": "上海市陕西南路地铁站",
      "intro": "往B方向站台车头",
      "tags": [
        "1号线",
        "费区内有无障碍卫生间",
        "费区内有卫生间"
      ],
      "center": {
        "lat": 31.21515,
        "lng": 121.458744
      }
    },
    {
      "name": "常熟路",
      "address": "上海市常熟路地铁站",
      "intro": "往B方向站台车头",
      "tags": [
        "1号线",
        "费区内有无障碍卫生间",
        "费区内有卫生间"
      ],
      "center": {
        "lat": 31.213524,
        "lng": 121.449141
      }
    },
    {
      "name": "衡山路",
      "address": "上海市衡山路地铁站",
      "intro": "往B方向站台车尾（施工封闭）",
      "tags": [
        "1号线",
        "费区内有无障碍卫生间",
        "费区内有卫生间"
      ],
      "center": {
        "lat": 31.204528,
        "lng": 121.446424
      }
    },
    {
      "name": "徐家汇",
      "address": "上海市徐家汇地铁站",
      "intro": "往B方向站台车头",
      "tags": [
        "1号线",
        "费区内有无障碍卫生间",
        "费区内有卫生间"
      ],
      "center": {
        "lat": 31.195514,
        "lng": 121.436603
      }
    },
    {
      "name": "上海体育馆",
      "address": "上海市上海体育馆地铁站",
      "intro": "往B方向站台车头",
      "tags": [
        "1号线",
        "费区内有无障碍卫生间",
        "费区内有卫生间"
      ],
      "center": {
        "lat": 31.182813,
        "lng": 121.437423
      }
    },
    {
      "name": "漕宝路",
      "address": "上海市漕宝路地铁站",
      "intro": "12号线8号口",
      "tags": [
        "1号线",
        "费区外有无障碍卫生间",
        "费区外有卫生间"
      ],
      "center": {
        "lat": 31.168344,
        "lng": 121.433143
      }
    },
    {
      "name": "上海南站",
      "address": "上海市上海南站地铁站",
      "intro": "1、15号线换乘大厅",
      "tags": [
        "1号线",
        "费区内有无障碍卫生间",
        "费区内有卫生间"
      ],
      "center": {
        "lat": 31.154579,
        "lng": 121.430041
      }
    },
    {
      "name": "锦江乐园",
      "address": "上海市锦江乐园地铁站",
      "intro": "往A方向站台车尾（施工封闭）",
      "tags": [
        "1号线",
        "费区内有卫生间",
        "无无障碍卫生间"
      ],
      "center": {
        "lat": 31.142217,
        "lng": 121.414107
      }
    },
    {
      "name": "莲花路",
      "address": "上海市莲花路地铁站",
      "intro": "北站厅中部",
      "tags": [
        "1号线",
        "费区内有无障碍卫生间",
        "费区内有卫生间"
      ],
      "center": {
        "lat": 31.131977,
        "lng": 121.402815
      }
    },
    {
      "name": "外环路",
      "address": "上海市外环路地铁站",
      "intro": "北广场公交站点厕所",
      "tags": [
        "1号线",
        "车站外有卫生间",
        "无无障碍卫生间"
      ],
      "center": {
        "lat": 31.120991,
        "lng": 121.394246
      }
    },
    {
      "name": "莘庄",
      "address": "上海市莘庄地铁站",
      "intro": "北1口公共厕所",
      "tags": [
        "1号线",
        "车站外有卫生间",
        "无无障碍卫生间"
      ],
      "center": {
        "lat": 31.112297,
        "lng": 121.3844
      }
    }
  ],
  "center": {
    "lat": 31.247294928571428,
    "lng": 121.44032521428572
  },
  "zoom": [
    10,
    9,
    15
  ]
}