{
  "name": "上海地铁2号线厕所分布",
  "description": "2024.09更新",
  "origin": "https://mp.weixin.qq.com/s/TQHz1uqpfF3XN4e6N5-LzQ",
  "filter": {
    "inclusive": {
      "卫生间": [
        "卫生间在费区内",
        "卫生间在费区外",
        "卫生间在费区内/外均有",
        "车站外卫生间"
      ],
      "无障碍卫生间": [
        "无障碍卫生间在费区内",
        "无障碍卫生间在费区外",
        "无障碍卫生间在费区内/外均有",
        "无无障碍卫生间"
      ]
    },
    "exclusive": {}
  },
  "data": [
    {
      "name": "浦东1号2号航站楼",
      "address": "上海市浦东1号2号航站楼地铁站",
      "intro": "车站外 机场厕所",
      "tags": [
        "无无障碍卫生间",
        "车站外卫生间"
      ],
      "center": {
        "lat": 31.152944,
        "lng": 121.805271
      }
    },
    {
      "name": "海天三路",
      "address": "上海市海天三路地铁站",
      "intro": "费区内 站厅近南端自动扶梯",
      "tags": [
        "卫生间在费区内",
        "无障碍卫生间在费区内"
      ],
      "center": {
        "lat": 31.168459,
        "lng": 121.796878
      }
    },
    {
      "name": "远东大道",
      "address": "上海市远东大道地铁站",
      "intro": "车站外 2号口出站向东100米",
      "tags": [
        "无障碍卫生间在费区外",
        "车站外卫生间"
      ],
      "center": {
        "lat": 31.199385,
        "lng": 121.755301
      }
    },
    {
      "name": "凌空路",
      "address": "上海市凌空路地铁站",
      "intro": "费区外 站厅近3号口",
      "tags": [
        "卫生间在费区外",
        "无障碍卫生间在费区外"
      ],
      "center": {
        "lat": 31.192861,
        "lng": 121.724095
      }
    },
    {
      "name": "川沙",
      "address": "上海市川沙地铁站",
      "intro": "费区外 站厅近1号口",
      "tags": [
        "卫生间在费区外",
        "无障碍卫生间在费区外"
      ],
      "center": {
        "lat": 31.186741,
        "lng": 121.69821
      }
    },
    {
      "name": "华夏东路",
      "address": "上海市华夏东路地铁站",
      "intro": "费区外 站厅近4号口",
      "tags": [
        "卫生间在费区外",
        "无障碍卫生间在费区外"
      ],
      "center": {
        "lat": 31.196575,
        "lng": 121.680972
      }
    },
    {
      "name": "创新中路",
      "address": "上海市创新中路地铁站",
      "intro": "费区外 近4号口",
      "tags": [
        "卫生间在费区外",
        "无障碍卫生间在费区外"
      ],
      "center": {
        "lat": 31.213871,
        "lng": 121.673713
      }
    },
    {
      "name": "唐镇",
      "address": "上海市唐镇地铁站",
      "intro": "车站外 1号口外公共厕所",
      "tags": [
        "无无障碍卫生间",
        "车站外卫生间"
      ],
      "center": {
        "lat": 31.214107,
        "lng": 121.656269
      }
    },
    {
      "name": "广兰路",
      "address": "上海市广兰路地铁站",
      "intro": "费区外 近4号口",
      "tags": [
        "卫生间在费区外",
        "无障碍卫生间在费区外"
      ],
      "center": {
        "lat": 31.211042,
        "lng": 121.619354
      }
    },
    {
      "name": "金科路",
      "address": "上海市金科路地铁站",
      "intro": "费区外 近3号口",
      "tags": [
        "卫生间在费区外",
        "无障碍卫生间在费区外"
      ],
      "center": {
        "lat": 31.204405,
        "lng": 121.601662
      }
    },
    {
      "name": "张江高科",
      "address": "上海市张江高科地铁站",
      "intro": "费区外 近2号口",
      "tags": [
        "卫生间在费区外",
        "无障碍卫生间在费区外"
      ],
      "center": {
        "lat": 31.201872,
        "lng": 121.58749
      }
    },
    {
      "name": "龙阳路",
      "address": "上海市龙阳路地铁站",
      "intro": "费区内 往A方向站台车头",
      "tags": [
        "卫生间在费区内",
        "无障碍卫生间在费区内"
      ],
      "center": {
        "lat": 31.203575,
        "lng": 121.557634
      }
    },
    {
      "name": "世纪公园",
      "address": "上海市世纪公园地铁站",
      "intro": "费区内 往A方向站台车头",
      "tags": [
        "卫生间在费区内",
        "无障碍卫生间在费区内"
      ],
      "center": {
        "lat": 31.209421,
        "lng": 121.550909
      }
    },
    {
      "name": "上海科技馆",
      "address": "上海市上海科技馆地铁站",
      "intro": "费区内 往A方向站台车头",
      "tags": [
        "卫生间在费区内",
        "无障碍卫生间在费区内"
      ],
      "center": {
        "lat": 31.21882,
        "lng": 121.544439
      }
    },
    {
      "name": "世纪大道",
      "address": "上海市世纪大道地铁站",
      "intro": "费区内 6号线往东方体育中心方向车尾、往港城路方向车头",
      "tags": [
        "卫生间在费区内",
        "无障碍卫生间在费区内"
      ],
      "center": {
        "lat": 31.228946,
        "lng": 121.526572
      }
    },
    {
      "name": "浦东南路",
      "address": "上海市浦东南路地铁站",
      "intro": "费区内 往A方向站台车头",
      "tags": [
        "卫生间在费区内",
        "无障碍卫生间在费区内"
      ],
      "center": {
        "lat": 31.238532,
        "lng": 121.512412
      }
    },
    {
      "name": "陆家嘴",
      "address": "上海市陆家嘴地铁站",
      "intro": "费区内 往A方向站台车头",
      "tags": [
        "卫生间在费区内",
        "无障碍卫生间在费区内"
      ],
      "center": {
        "lat": 31.238259,
        "lng": 121.502129
      }
    },
    {
      "name": "南京东路",
      "address": "上海市南京东路地铁站",
      "intro": "费区内 往A方向站台车尾",
      "tags": [
        "卫生间在费区内",
        "无障碍卫生间在费区内"
      ],
      "center": {
        "lat": 31.238101,
        "lng": 121.484628
      }
    },
    {
      "name": "人民广场",
      "address": "上海市人民广场地铁站",
      "intro": "费区内 往A方向站台车尾（施工封闭）",
      "tags": [
        "卫生间在费区内",
        "无障碍卫生间在费区内"
      ],
      "center": {
        "lat": 31.232687,
        "lng": 121.475108
      }
    },
    {
      "name": "南京西路",
      "address": "上海市南京西路地铁站",
      "intro": "费区内 往A方向站台车头",
      "tags": [
        "卫生间在费区内",
        "无障碍卫生间在费区内"
      ],
      "center": {
        "lat": 31.229853,
        "lng": 121.459971
      }
    },
    {
      "name": "静安寺",
      "address": "上海市静安寺地铁站",
      "intro": "费区内 往A方向站台车头",
      "tags": [
        "卫生间在费区内",
        "无障碍卫生间在费区内"
      ],
      "center": {
        "lat": 31.223231,
        "lng": 121.446533
      }
    },
    {
      "name": "江苏路",
      "address": "上海市江苏路地铁站",
      "intro": "费区内 往A方向站台车头",
      "tags": [
        "卫生间在费区内",
        "无障碍卫生间在费区内"
      ],
      "center": {
        "lat": 31.220408,
        "lng": 121.430635
      }
    },
    {
      "name": "中山公园",
      "address": "上海市中山公园地铁站",
      "intro": "费区内 往A方向站台车头",
      "tags": [
        "卫生间在费区内",
        "无障碍卫生间在费区内"
      ],
      "center": {
        "lat": 31.219886,
        "lng": 121.416719
      }
    },
    {
      "name": "娄山关路",
      "address": "上海市娄山关路地铁站",
      "intro": "费区内 往B方向站台车头",
      "tags": [
        "卫生间在费区内",
        "无障碍卫生间在费区内"
      ],
      "center": {
        "lat": 31.211158,
        "lng": 121.404058
      }
    },
    {
      "name": "威宁路",
      "address": "上海市威宁路地铁站",
      "intro": "费区内 往A方向站台车头",
      "tags": [
        "卫生间在费区内",
        "无障碍卫生间在费区内"
      ],
      "center": {
        "lat": 31.21487,
        "lng": 121.387285
      }
    },
    {
      "name": "北新泾",
      "address": "上海市北新泾地铁站",
      "intro": "费区内 往B方向站台车头",
      "tags": [
        "卫生间在费区内",
        "无障碍卫生间在费区内"
      ],
      "center": {
        "lat": 31.216395,
        "lng": 121.373998
      }
    },
    {
      "name": "淞虹路",
      "address": "上海市淞虹路地铁站",
      "intro": "费区内 往B方向站台车头",
      "tags": [
        "卫生间在费区内",
        "卫生间在费区外",
        "无障碍卫生间在费区外",
        "无障碍卫生间在费区内"
      ],
      "center": {
        "lat": 31.218225,
        "lng": 121.359536
      }
    },
    {
      "name": "虹桥2号航站楼",
      "address": "上海市虹桥2号航站楼地铁站",
      "intro": "车站外 机场厕所",
      "tags": [
        "无无障碍卫生间",
        "车站外卫生间"
      ],
      "center": {
        "lat": 31.194211,
        "lng": 121.3263
      }
    },
    {
      "name": "虹桥火车站",
      "address": "上海市虹桥火车站地铁站",
      "intro": "费区内 往A方向站台车头",
      "tags": [
        "卫生间在费区内",
        "无障碍卫生间在费区内"
      ],
      "center": {
        "lat": 31.193987,
        "lng": 121.31891
      }
    },
    {
      "name": "国家会展中心",
      "address": "上海市国家会展中心地铁站",
      "intro": "费区外 近2号口",
      "tags": [
        "卫生间在费区外",
        "无障碍卫生间在费区外"
      ],
      "center": {
        "lat": 31.188336,
        "lng": 121.299154
      }
    }
  ],
  "center": {
    "lat": 31.2093721,
    "lng": 121.53253816666667
  },
  "zoom": [
    10,
    9,
    15
  ]
}